[
  { "regionId": "3501", "name": "Stormont, Dundas and Glengarry", "medianSalary": 108200, "count": 1250, "lat": 45.03, "lng": -74.99 },
  { "regionId": "3502", "name": "Prescott and Russell", "medianSalary": 106800, "count": 820, "lat": 45.38, "lng": -74.63 },
  { "regionId": "3506", "name": "Ottawa", "medianSalary": 122400, "count": 18500, "lat": 45.42, "lng": -75.69 },
  { "regionId": "3507", "name": "Leeds and Grenville", "medianSalary": 107500, "count": 980, "lat": 44.62, "lng": -75.85 },
  { "regionId": "3509", "name": "Lanark", "medianSalary": 106200, "count": 540, "lat": 44.97, "lng": -76.45 },
  { "regionId": "3510", "name": "Frontenac", "medianSalary": 118900, "count": 4800, "lat": 44.38, "lng": -76.57 },
  { "regionId": "3511", "name": "Lennox and Addington", "medianSalary": 105800, "count": 380, "lat": 44.47, "lng": -77.05 },
  { "regionId": "3512", "name": "Hastings", "medianSalary": 108400, "count": 1650, "lat": 44.51, "lng": -77.57 },
  { "regionId": "3513", "name": "Prince Edward", "medianSalary": 104500, "count": 280, "lat": 43.95, "lng": -77.09 },
  { "regionId": "3514", "name": "Northumberland", "medianSalary": 107100, "count": 720, "lat": 44.12, "lng": -77.87 },
  { "regionId": "3515", "name": "Peterborough", "medianSalary": 112500, "count": 2400, "lat": 44.31, "lng": -78.32 },
  { "regionId": "3516", "name": "Kawartha Lakes", "medianSalary": 106800, "count": 580, "lat": 44.53, "lng": -78.73 },
  { "regionId": "3518", "name": "Durham", "medianSalary": 114200, "count": 6800, "lat": 43.94, "lng": -78.86 },
  { "regionId": "3519", "name": "York", "medianSalary": 116800, "count": 12500, "lat": 43.98, "lng": -79.47 },
  { "regionId": "3520", "name": "Toronto", "medianSalary": 124500, "count": 68000, "lat": 43.65, "lng": -79.38 },
  { "regionId": "3521", "name": "Peel", "medianSalary": 113800, "count": 14200, "lat": 43.68, "lng": -79.75 },
  { "regionId": "3522", "name": "Dufferin", "medianSalary": 106500, "count": 480, "lat": 44.06, "lng": -80.11 },
  { "regionId": "3523", "name": "Wellington", "medianSalary": 115200, "count": 3800, "lat": 43.75, "lng": -80.45 },
  { "regionId": "3524", "name": "Halton", "medianSalary": 115600, "count": 6200, "lat": 43.48, "lng": -79.88 },
  { "regionId": "3525", "name": "Hamilton", "medianSalary": 118500, "count": 9800, "lat": 43.26, "lng": -79.87 },
  { "regionId": "3526", "name": "Niagara", "medianSalary": 112800, "count": 5200, "lat": 43.10, "lng": -79.23 },
  { "regionId": "3528", "name": "Haldimand-Norfolk", "medianSalary": 105200, "count": 680, "lat": 42.88, "lng": -80.17 },
  { "regionId": "3529", "name": "Brant", "medianSalary": 110200, "count": 1450, "lat": 43.14, "lng": -80.27 },
  { "regionId": "3530", "name": "Waterloo", "medianSalary": 116800, "count": 7200, "lat": 43.45, "lng": -80.49 },
  { "regionId": "3531", "name": "Perth", "medianSalary": 108500, "count": 920, "lat": 43.58, "lng": -81.00 },
  { "regionId": "3532", "name": "Oxford", "medianSalary": 107800, "count": 860, "lat": 43.10, "lng": -80.73 },
  { "regionId": "3534", "name": "Elgin", "medianSalary": 106200, "count": 580, "lat": 42.72, "lng": -81.08 },
  { "regionId": "3536", "name": "Chatham-Kent", "medianSalary": 105800, "count": 750, "lat": 42.38, "lng": -82.18 },
  { "regionId": "3537", "name": "Essex", "medianSalary": 112400, "count": 4200, "lat": 42.17, "lng": -82.95 },
  { "regionId": "3538", "name": "Lambton", "medianSalary": 110800, "count": 1200, "lat": 42.93, "lng": -82.13 },
  { "regionId": "3539", "name": "Middlesex", "medianSalary": 118200, "count": 8500, "lat": 43.00, "lng": -81.25 },
  { "regionId": "3540", "name": "Huron", "medianSalary": 105500, "count": 420, "lat": 43.71, "lng": -81.51 },
  { "regionId": "3541", "name": "Bruce", "medianSalary": 108200, "count": 780, "lat": 44.29, "lng": -81.17 },
  { "regionId": "3542", "name": "Grey", "medianSalary": 106800, "count": 680, "lat": 44.42, "lng": -80.72 },
  { "regionId": "3543", "name": "Simcoe", "medianSalary": 112500, "count": 4800, "lat": 44.39, "lng": -79.85 },
  { "regionId": "3544", "name": "Muskoka", "medianSalary": 107200, "count": 520, "lat": 45.10, "lng": -79.40 },
  { "regionId": "3546", "name": "Haliburton", "medianSalary": 104800, "count": 180, "lat": 45.03, "lng": -78.53 },
  { "regionId": "3547", "name": "Renfrew", "medianSalary": 108500, "count": 1200, "lat": 45.64, "lng": -77.20 },
  { "regionId": "3548", "name": "Nipissing", "medianSalary": 112200, "count": 2100, "lat": 46.30, "lng": -79.45 },
  { "regionId": "3549", "name": "Parry Sound", "medianSalary": 106500, "count": 380, "lat": 45.42, "lng": -79.93 },
  { "regionId": "3551", "name": "Manitoulin", "medianSalary": 104200, "count": 150, "lat": 45.78, "lng": -82.00 },
  { "regionId": "3552", "name": "Sudbury", "medianSalary": 115800, "count": 3800, "lat": 46.49, "lng": -80.99 },
  { "regionId": "3553", "name": "Timiskaming", "medianSalary": 105800, "count": 280, "lat": 47.52, "lng": -79.68 },
  { "regionId": "3554", "name": "Cochrane", "medianSalary": 109200, "count": 1200, "lat": 49.07, "lng": -81.02 },
  { "regionId": "3556", "name": "Algoma", "medianSalary": 110500, "count": 1800, "lat": 46.52, "lng": -84.35 },
  { "regionId": "3557", "name": "Thunder Bay", "medianSalary": 114800, "count": 3200, "lat": 48.38, "lng": -89.25 },
  { "regionId": "3558", "name": "Rainy River", "medianSalary": 106200, "count": 280, "lat": 48.82, "lng": -93.67 },
  { "regionId": "3559", "name": "Kenora", "medianSalary": 108500, "count": 580, "lat": 49.77, "lng": -94.49 },
  { "regionId": "3560", "name": "Greater Sudbury", "medianSalary": 115200, "count": 3500, "lat": 46.49, "lng": -81.00 }
]
